[
    {
        "comment": "also http://simbionix.com/",
        "name": "3DSystems, Medical Simulation (was Simbionix)",
        "offices": [
            {
                "address": "Corner of Golan and Hanegev St.  Airport City, 70151, Israel",
                "area": "Airport City",
                "coordinates": {
                    "lat": 31.9876241,
                    "lng": 34.91314
                },
                "phone": "+972-3-9114444"
            }
        ],
        "technologies": [
            "C++"
        ],
        "url": "https://www.3dsystems.com/"
    },
    {
        "name": "3M",
        "offices": [
            {
                "address": "Maskit St 8, Hertsliya, Israel",
                "coordinates": {
                    "lat": 32.1665615,
                    "lng": 34.81151369999998
                }
            }
        ],
        "url": "http://3misrael.co.il"
    },
    {
        "name": "APM automation solutions",
        "offices": [
            {
                "address": "Kiryat Atidim, Tel Aviv, Israel",
                "coordinates": {
                    "lat": 32.11516,
                    "lng": 34.84296
                }
            }
        ],
        "url": "http://apm-solutions.com/"
    },
    {
        "name": "AT&T (was Interwise)",
        "offices": [
            {
                "address": "Negev 4, Airport City 70150 Lod, Israel",
                "coordinates": {
                    "lat": 31.98765,
                    "lng": 34.91315
                }
            }
        ],
        "url": "https://www.corp.att.com/"
    },
    {
        "name": "Abbott",
        "offices": [
            {
                "address": "Kiryat Atidim Science Park, Bldg. 4, Tel Aviv 61580 Israel",
                "coordinates": {
                    "lat": 32.11516,
                    "lng": 34.842959000000064
                },
                "name": "Abbott Medical Laboratories Ltd."
            }
        ],
        "url": "http://www.abbott.com/"
    },
    {
        "name": "Advanced Inhalation Therapies Ltd.",
        "offices": [
            {
                "address": "2 Ilan Ramon st. Science park Ness Ziona Israel",
                "area": "Rehovot"
            }
        ],
        "url": "http://www.ait-pharm.com/"
    },
    {
        "name": "Agentek",
        "offices": [
            {
                "address": "Kiryat Atidim, Tel Aviv, Israel",
                "coordinates": {
                    "lat": 32.11518,
                    "lng": 34.84296
                }
            }
        ],
        "url": "http://agentek.co.il/"
    },
    {
        "name": "Allot",
        "offices": [
            {
                "address": "22 Hanagar Street Industrial Zone B Hod-Hasharon, 4501317",
                "phone": "+972 9 761-9200"
            }
        ],
        "url": "http://www.allot.com/"
    },
    {
        "name": "Applied Materials",
        "offices": [
            {
                "address": "9 Oppenheimer Street Rehovot, 076705 Israel",
                "area": "Rehovot"
            },
            {
                "address": "HaAshlegan 1 St. Kiryat Gat Israel"
            }
        ],
        "url": "http://www.appliedmaterials.com/"
    },
    {
        "name": "AppsFlyer",
        "offices": [
            {
                "address": "14 Maskit St, 6th Floor POB 12371, Herzliya, 4673314",
                "phone": "+972-9-768-1949"
            }
        ],
        "url": "http://appsflyer.com/"
    },
    {
        "name": "Ardix",
        "offices": [
            {
                "address": "Kiryat Atidim, Tel Aviv, Israel",
                "coordinates": {
                    "lat": 32.11519,
                    "lng": 34.84296
                }
            }
        ],
        "url": "http://www.ardix.co.il/"
    },
    {
        "name": "AudioCodes",
        "offices": [
            {
                "address": "1 Hayarden Street, Airport City, Lod, 7019900, Israel",
                "coordinates": {
                    "lat": 31.9876243,
                    "lng": 34.91314
                },
                "phone": "+972-3-976-4000"
            }
        ],
        "url": "http://www.audiocodes.com/"
    },
    {
        "name": "BIRD foundation",
        "offices": [
            {
                "address": "Kiryat Atidim, Tel Aviv, Israel",
                "coordinates": {
                    "lat": 32.115171,
                    "lng": 34.84296
                }
            }
        ],
        "url": "http://www.birdf.com/"
    },
    {
        "name": "Biolight",
        "offices": [
            {
                "address": "Kiryat Atidim Building 3, 5th Floor 6158101 Tel Aviv, Israel",
                "coordinates": {
                    "lat": 32.115172,
                    "lng": 34.84296
                }
            }
        ],
        "url": "https://www.bio-light.co.il/"
    },
    {
        "name": "Chegg",
        "offices": [
            {
                "address": "HaMada St, Rehovot, Israel",
                "area": "Rehovot"
            }
        ],
        "url": "http://www.chegg.com/"
    },
    {
        "name": "Clear Cut",
        "offices": [
            {
                "address": "10 Plaut st., Rehovot, Israel, 7670609",
                "area": "Rehovot",
                "phone": "+972-8-632-6004"
            }
        ],
        "url": "http://www.clrcut.com/"
    },
    {
        "name": "Clicktale",
        "offices": [
            {
                "address": "Atrium Tower, 2 Jabotinsky St.  Ramat Gan, 5250501"
            }
        ],
        "url": "https://www.clicktale.com/"
    },
    {
        "name": "Clixie",
        "offices": [
            {
                "address": "121 Dvora Hanevia St.  Kiryat Atidim, Building 3, 4th floor Tel Aviv 6944038, Israel",
                "coordinates": {
                    "lat": 32.115173,
                    "lng": 34.84296
                }
            }
        ],
        "url": "http://www.clixie.com/"
    },
    {
        "name": "Comda",
        "offices": [
            {
                "address": "Kiryat Atidim, Tel Aviv, Israel",
                "coordinates": {
                    "lat": 32.115174,
                    "lng": 34.84296
                }
            }
        ],
        "url": "https://comda.co.il/"
    },
    {
        "comment": "Conduit is not Como http://www.conduit.com/",
        "name": "Como",
        "offices": [
            {
                "address": "2 Ilan Ramon Street, Ness Ziona, 7403635 Israel",
                "area": "Rehovot"
            }
        ],
        "url": "http://www.como.com/"
    },
    {
        "name": "Comsign",
        "offices": [
            {
                "address": "Kiryat Atidim, Tel Aviv Israel",
                "coordinates": {
                    "lat": 32.115175,
                    "lng": 34.84296
                }
            }
        ],
        "url": "https://www.comsign.co.il/"
    },
    {
        "name": "Dapulse",
        "offices": [
            {
                "address": "Yehuda Halevi 48, Tel Aviv, Israel 657820"
            }
        ],
        "url": "https://dapulse.com/"
    },
    {
        "name": "ECI Telecom Ltd",
        "offices": [
            {
                "address": "Ha-Sivim St 30, Petah Tikva, 4959388, Israel",
                "area": "Petach Tikva",
                "coordinates": {
                    "lat": 32.0869407,
                    "lng": 34.85644500000001
                },
                "phone": "+972 3-926-6555"
            },
            {
                "address": "Alomot 5, Omer Industrial Park, Israel",
                "area": "Omer",
                "coordinates": {
                    "lat": 31.2684836,
                    "lng": 34.836373500000036
                },
                "phone": "+972-3-9268526"
            }
        ],
        "technologies": [
            "Python"
        ],
        "url": "http://www.ecitele.com/"
    },
    {
        "name": "Elbit",
        "offices": [
            {
                "address": "Rehovot, Israel",
                "area": "Rehovot"
            },
            {
                "address": "Advanced Technology Center P.O.B 539, Haifa 31053 Israel"
            }
        ],
        "url": ""
    },
    {
        "name": "Evogene",
        "offices": [
            {
                "address": "13 Gad Feinstein st. Park Rehovot P.O.B 2100 Rehovot 7612002, Israel",
                "area": "Park Rehovot",
                "phone": "+972-8-9311900"
            }
        ],
        "url": "http://www.evogene.com/"
    },
    {
        "name": "F5 (Traffix Systems)",
        "offices": [
            {
                "address": "Kiryat Atidim 8, Tel Aviv, Israel",
                "coordinates": {
                    "lat": 32.115176,
                    "lng": 34.84296
                }
            }
        ],
        "url": "https://f5.com/"
    },
    {
        "name": "Fiverr",
        "offices": [
            {
                "address": "Eliezer Kaplan 8, Tel Aviv-Yafo, Israel"
            }
        ],
        "url": "https://www.fiverr.com/"
    },
    {
        "name": "Foamix",
        "offices": [
            {
                "address": "2 Holzman Street, Rehovot, 076704, Israel"
            }
        ],
        "url": "http://www.foamix.co.il/"
    },
    {
        "name": "ForeScout",
        "offices": [
            {
                "address": "24 Raoul Wallenberg St.  Entrance D, 5th floor Tel Aviv, 6971924, Israel"
            }
        ],
        "url": "https://www.forescout.com/"
    },
    {
        "name": "HP",
        "offices": [
            {
                "address": "Hp Indigo, Einstein 10 Kiryat Weitzmann Rehovot 76470 Israel"
            },
            {
                "address": "Sderot Avats 24, Kiryat Gat, Israel"
            }
        ],
        "url": ""
    },
    {
        "name": "IBM",
        "offices": [
            {
                "address": "Ruhrberg Science Center, Park TMR, 3 Pekeris Street (Edison entrance, 2nd floor), Rehovot, Israel."
            },
            {
                "address": "University of Haifa"
            }
        ],
        "url": "https://www.ibm.com/"
    },
    {
        "name": "IMD-soft",
        "offices": [
            {
                "address": "Kiryat Atidim, Tel Aviv, Israel",
                "coordinates": {
                    "lat": 32.115177,
                    "lng": 34.84296
                }
            }
        ],
        "url": "http://www.imd-soft.com/"
    },
    {
        "name": "Imperva",
        "offices": [
            {
                "address": "125 Menachem Begin Street Tel-Aviv 67010 Israel",
                "phone": "+972 3 6840100"
            },
            {
                "address": "2 Pekeris Street 2nd floor Rehovot, 7670212 Israel",
                "phone": "+972 72 3771700"
            },
            {
                "address": "Imperva Skyfence 14 Abba Hillel St.  Ramat-Gan, 5250607 Israel"
            }
        ],
        "url": "https://www.imperva.com/"
    },
    {
        "name": "Infoneto",
        "offices": [
            {
                "address": "Tzela HaHar St 1, Modi'in Makabim-Re'ut, 71706, Israel",
                "area": "Modiin",
                "coordinates": {
                    "lat": 31.9205473,
                    "lng": 34.97099819999994
                },
                "phone": "+972 77-790-0977"
            }
        ],
        "technologies": [
            "Perl"
        ],
        "url": "http://www.infoneto.co.il/"
    },
    {
        "name": "Informatica",
        "offices": [
            {
                "address": "Kiryat Atidim, Building #8, 29th Floor Tel Aviv 6158101 Israel",
                "coordinates": {
                    "lat": 32.115178,
                    "lng": 34.84296
                }
            }
        ],
        "url": "https://www.informatica.com/"
    },
    {
        "name": "Innovision",
        "offices": [
            {
                "address": "Kiryat Atidim, Tel Aviv, Israel",
                "coordinates": {
                    "lat": 32.115179,
                    "lng": 34.84296
                }
            }
        ],
        "url": "http://www.innovision.co.il/"
    },
    {
        "name": "IronSource",
        "offices": [
            {
                "address": "28 Lilienblum St., Tel Aviv"
            }
        ],
        "url": "http://www.ironsrc.com/"
    },
    {
        "name": "Lattice",
        "offices": [
            {
                "address": "Kiryat Atidim Tower #4 12th floor POB 58192 Tel Aviv 6158101 Israel",
                "coordinates": {
                    "lat": 32.11517,
                    "lng": 34.842961
                }
            }
        ],
        "url": "http://www.latticesemi.com/"
    },
    {
        "name": "MSD - Merck Sharp & Dohme",
        "offices": [
            {
                "address": "Hod HaSharon, Israel"
            }
        ],
        "url": "http://www.msd.co.il/"
    },
    {
        "name": "Marvell Semiconductors",
        "offices": [
            {
                "address": "6 Hamada Street Mordot HaCarmel Industrial Park Yokneam Israel 20692"
            },
            {
                "address": "94 Em Hamoshavot way, Azorim Park Petah Tikva Israel 49527"
            }
        ],
        "url": "https://www.marvell.com/"
    },
    {
        "name": "Medinol",
        "offices": [
            {
                "address": "Building 8, 35th Floor, Kiriyat Atidim, POB 58165 Tel Aviv 6158101 Israel"
            }
        ],
        "url": "http://www.medinol.com/"
    },
    {
        "name": "Mentor Graphics (Siemens)",
        "offices": [
            {
                "address": "10 Shderot Aba Eban Building C P.O.B. 2155 Herzliya Israel 46120"
            },
            {
                "address": "Rehovot ?"
            }
        ],
        "url": "https://www.mentor.com/"
    },
    {
        "name": "Merkspace",
        "offices": [
            {
                "address": "Kiryat Atidim, Tel Aviv, Israel",
                "coordinates": {
                    "lat": 32.11517,
                    "lng": 34.842962
                }
            }
        ],
        "url": "https://www.merkspace.com/"
    },
    {
        "name": "Micromedic",
        "offices": [
            {
                "address": "Kiryat Atidim, Tel Aviv, Israel",
                "coordinates": {
                    "lat": 32.11517,
                    "lng": 34.842963
                }
            }
        ],
        "url": "http://www.m-medic.com/"
    },
    {
        "name": "Microsemi",
        "offices": [
            {
                "address": "Microsemi - 2 Building, 7 Arye Shenkar Street Herzliya Pituach Israel 4612002"
            },
            {
                "address": "Microsemi Corp. - Analog Mixed signal Group, Ltd.  1 Hanager St., Neve Ne'eman Industrial Zone Hod Hasharon Israel 45421"
            }
        ],
        "url": "https://www.microsemi.com/"
    },
    {
        "name": "Ness",
        "offices": [
            {
                "address": "Ness Tower, Building 4 Kiryat Atidim, Industrial Park P.O.Box 58152 Tel Aviv 61580",
                "coordinates": {
                    "lat": 32.11517,
                    "lng": 34.842964
                }
            },
            {
                "address": "Energy 77, High-Tech Park, Beer Sheva, Israel"
            }
        ],
        "url": "http://www.ness-tech.co.il/"
    },
    {
        "name": "Nokia",
        "offices": [
            {
                "address": "16 Atir Yeda St. Kfar-Saba 44643"
            }
        ],
        "url": "http://www.nokia.com/"
    },
    {
        "name": "Nova Measuring",
        "offices": [
            {
                "address": "Weizmann Science Park, Rehovot 7610201, Israel"
            }
        ],
        "url": "http://novameasuring.com/"
    },
    {
        "name": "Observeit",
        "offices": [
            {
                "address": "Kiryat Atidim, Building #7, 4th Floor Tel Aviv 61580 Israel",
                "coordinates": {
                    "lat": 32.11517,
                    "lng": 34.842965
                }
            }
        ],
        "url": "https://www.observeit.com/"
    },
    {
        "name": "One Hour Translation",
        "offices": [
            {
                "address": "Golda Meir Street 3, Nes Ziyyona, Israel"
            }
        ],
        "url": "https://www.onehourtranslation.com/"
    },
    {
        "name": "Otonomo",
        "offices": [
            {
                "address": "16 Abba Even Blvd. Herzeliya Pituach, Israel"
            }
        ],
        "url": "http://otonomo.io/"
    },
    {
        "name": "Panoply",
        "offices": [
            {
                "address": "Isserles, 22 67014 Tel Aviv, Israel",
                "area": "Tel Aviv",
                "coordinates": {
                    "lat": 32.071168,
                    "lng": 34.79208730000005
                },
                "technologies": [
                    "JavaScript",
                    "NodeJS",
                    "AWS",
                    "Hadoop",
                    "Redshift"
                ]
            }
        ],
        "url": "http://panoply.io/"
    },
    {
        "name": "Philips",
        "offices": [
            {
                "address": "Aharon Bert 18, Petach Tikva, 4900302, Israel",
                "area": "Petach Tikva",
                "coordinates": {
                    "lat": 32.1012946,
                    "lng": 34.86133319999999
                },
                "phone": ""
            }
        ],
        "technologies": [
            "Java",
            "JavaScript",
            "AngularJS",
            "Spring MVC"
        ],
        "url": "http://www.philips.com/"
    },
    {
        "name": "Qualcomm",
        "offices": [
            {
                "address": "Omega Building Tirat Carmel Nahum Het St. 1 Tirat Carmel Haifa 3190500 Israel",
                "area": "Matam"
            },
            {
                "address": "1 Shankar Street Herzliya 4672501 Israel",
                "area": "Herzeliya"
            },
            {
                "address": "4 HaHarash St. POB 7331 Neve Ne'eman Hod HaSharon 4524075 Israel"
            }
        ],
        "url": "https://www.qualcomm.com/"
    },
    {
        "name": "Radcom",
        "offices": [
            {
                "address": "24 Raoul Wallenberg st., Tel-Aviv 6971920, Israel"
            }
        ],
        "url": "https://www.radcom.com/"
    },
    {
        "name": "Radware",
        "offices": [
            {
                "address": "22 Raoul Wallenberg Street Tel Aviv 69710, Israel"
            },
            {
                "address": "Ha'Marpe 8, Har-Hotzvim Jerusalem 97774, Israel"
            }
        ],
        "url": "https://www.radware.com/"
    },
    {
        "name": "Rosetta Genomics Ltd.",
        "offices": [
            {
                "address": "10 Plaut St., Rehovot, Israel, 76706",
                "phone": "+972-73-222-0700"
            }
        ],
        "url": "http://rosettagx.com/"
    },
    {
        "name": "SanDisk",
        "offices": [
            {
                "address": "Building 10 Floor 2 Southwest Omer Industrial Park Omer Israel",
                "area": "Omer",
                "phone": "+972-8-620-1564"
            },
            {
                "address": "Sderot HaTa'asiya & Sderot HaGalil Junction Migdal Tefen P.O. Box 3 Migdal Tefen 24959 Israel",
                "area": "Tefen",
                "phone": "+972-4-907-8888"
            },
            {
                "address": "7 Atir Yeda St. Kfar Saba 44425, Israel",
                "area": "Kfar Saba",
                "phone": "+972-9-764-5000"
            }
        ],
        "url": "https://www.sandisk.com/"
    },
    {
        "name": "Sapiens",
        "offices": [
            {
                "address": "Sapiens International, Azrieli Center, 26 Harokmim st., Holon, 588-5800, Israel"
            }
        ],
        "url": "http://www.sapiens.com/"
    },
    {
        "name": "SimilarWeb",
        "offices": [
            {
                "address": "Derech Menachem Begin 23, Tel Aviv-Yafo, 6618210, Israel",
                "phone": "+972-3-5447782"
            }
        ],
        "url": "http://similarweb.com"
    },
    {
        "name": "Speedboard",
        "offices": [
            {
                "address": "Kiryat Atidim, Tel Aviv, Israel",
                "coordinates": {
                    "lat": 32.11517,
                    "lng": 34.842966
                }
            }
        ],
        "url": "http://www.speed-board.co.il/"
    },
    {
        "name": "Stanley Healthcare Solutions",
        "offices": [
            {
                "address": "Ilan Ramon St. Science Park Ness Ziona Building 11, Floor 5 7403635 Israel",
                "area": "Rehovot"
            }
        ],
        "url": "http://www.stanleyhealthcare.com/"
    },
    {
        "name": "Stratasys",
        "offices": [
            {
                "address": "1 Holtzman St.Science Park, P.O. Box 2496 Rehovot 7612401"
            }
        ],
        "url": "http://www.stratasys.com/"
    },
    {
        "name": "SysAid",
        "offices": [
            {
                "address": "1 HaYarden Street Airport City, 70100 Israel",
                "coordinates": {
                    "lat": 31.9876242,
                    "lng": 34.91314
                },
                "phone": "+972 (3) 533-3675"
            }
        ],
        "url": "https://www.sysaid.com/"
    },
    {
        "name": "Tikal",
        "offices": [
            {
                "address": "Kiryat Atidim, Building 7, 3rd Floor POB 58269 Tel Aviv 6158102 Israel",
                "coordinates": {
                    "lat": 32.11518,
                    "lng": 34.84298
                }
            }
        ],
        "url": "https://www.tikalk.com/"
    },
    {
        "name": "Topgroup",
        "offices": [
            {
                "address": "Kiryat Atidim, Tel Aviv, Israel",
                "coordinates": {
                    "lat": 32.11517,
                    "lng": 34.84297
                }
            }
        ],
        "url": "http://top-group.co.il/"
    },
    {
        "name": "Traiana",
        "offices": [
            {
                "address": "132 Menachem Begin Road Azrieli Square Tower, Floor 25 Tel Aviv 63927 Israel",
                "coordinates": {
                    "lat": 32.0743304,
                    "lng": 34.792017100000066
                },
                "phone": "+972 3 610 0300"
            }
        ],
        "url": "http://www.traiana.com/"
    },
    {
        "name": "Weizmann Institute",
        "offices": [
            {
                "address": "Rehovot, Israel",
                "coordinates": {
                    "lat": 31.9037541,
                    "lng": 34.8080315
                }
            }
        ],
        "url": "http://www.weizmann.ac.il/"
    },
    {
        "name": "Wix",
        "offices": [
            {
                "address": "Namal 40 Tel Aviv, Israel",
                "coordinates": {
                    "lat": 32.097625,
                    "lng": 34.77382799999998
                }
            },
            {
                "address": "77 HaEnergia street, Gav-Yam Negev Beer Sheva, Israel",
                "coordinates": {
                    "lat": 31.262975,
                    "lng": 34.812668
                }
            }
        ],
        "technologies": [
            "JavaScript"
        ],
        "url": "https://www.wix.com/"
    },
    {
        "name": "ooVoo",
        "offices": [
            {
                "address": "22 Einstein St., Ness Ziona, Israel",
                "area": "Rehovot",
                "coordinates": {
                    "lat": 31.9147078,
                    "lng": 34.80677289999994
                }
            }
        ],
        "url": "http://www.oovoo.com/"
    }
]